{
    "status": "success",
    "data": [
        {
            "name": "Adabor",
            "pcode": "302602",
            "lat": 23.77196835358339,
            "lng": 90.35451596566672,
            "district": "Dhaka",
            "district_code": "BD3026",
            "division": "Dhaka",
            "division_code": "BD30",
            "name_bn": "আদাবর",
            "district_bn": "ঢাকা"
        },
        {
            "name": "Adamdighi",
            "pcode": "501006",
            "lat": 24.79434472436212,
            "lng": 89.06133320280178,
            "district": "Bogra",
            "district_code": "BD5010",
            "division": "Rajshahi",
            "division_code": "BD50",
            "name_bn": "আদমদীঘি",
            "district_bn": "বগুড়া"
        },
        {
            "name": "Aditmari",
            "pcode": "555202",
            "lat": 25.962209798223455,
            "lng": 89.37212233271282,
            "district": "Lalmonirhat",
            "district_code": "BD5552",
            "division": "Rangpur",
            "division_code": "BD55",
            "name_bn": "আদিতমারী",
            "district_bn": "লালমনিরহাট"
        },
        {
            "name": "Akkelpur",
            "pcode": "503813",
            "lat": 24.93769517290914,
            "lng": 89.04531959009097,
            "district": "Joypurhat",
            "district_code": "BD5038",
            "division": "Rajshahi",
            "division_code": "BD50",
            "name_bn": "আক্কেলপুর",
            "district_bn": "জয়পুরহাট"
        },
        {
            "name": "Alfadanga",
            "pcode": "302903",
            "lat": 23.30052102987677,
            "lng": 89.66913394194526,
            "district": "Faridpur",
            "district_code": "BD3029",
            "division": "Dhaka",
            "division_code": "BD30",
            "name_bn": "আলফাডাঙ্গা",
            "district_bn": "ফরিদপুর"
        },
        {
            "name": "Atgharia",
            "pcode": "507605",
            "lat": 24.112941250091794,
            "lng": 89.28187940663308,
            "district": "Pabna",
            "district_code": "BD5076",
            "division": "Rajshahi",
            "division_code": "BD50",
            "name_bn": "আটঘরিয়া",
            "district_bn": "পাবনা"
        },
        {
            "name": "Atrai",
            "pcode": "506403",
            "lat": 24.633117156008055,
            "lng": 88.97091120696005,
            "district": "Naogaon",
            "district_code": "BD5064",
            "division": "Rajshahi",
            "division_code": "BD50",
            "name_bn": "আত্রাই",
            "district_bn": "নওগাঁ"
        },
        {
            "name": "Atwari",
            "pcode": "557704",
            "lat": 26.256131128672617,
            "lng": 88.43505484053989,
            "district": "Panchagarh",
            "district_code": "BD5577",
            "division": "Rangpur",
            "division_code": "BD55",
            "name_bn": "আটোয়ারী",
            "district_bn": "পঞ্চগড়"
        },
        {
            "name": "Badalgachhi",
            "pcode": "506406",
            "lat": 24.97211701501129,
            "lng": 88.93512579130342,
            "district": "Naogaon",
            "district_code": "BD5064",
            "division": "Rajshahi",
            "division_code": "BD50",
            "name_bn": "বদলগাছি",
            "district_bn": "নওগাঁ"
        },
        {
            "name": "Badarganj",
            "pcode": "558503",
            "lat": 25.66378053871058,
            "lng": 89.0537917418597,
            "district": "Rangpur",
            "district_code": "BD5585",
            "division": "Rangpur",
            "division_code": "BD55",
            "name_bn": "বদরগঞ্জ",
            "district_bn": "রংপুর"
        },
        {
            "name": "Badda",
            "pcode": "302604",
            "lat": 23.79548212981486,
            "lng": 90.44679239896303,
            "district": "Dhaka",
            "district_code": "BD3026",
            "division": "Dhaka",
            "division_code": "BD30",
            "name_bn": "বাড্ডা",
            "district_bn": "ঢাকা"
        },
        {
            "name": "Bagati Para",
            "pcode": "506909",
            "lat": 24.31064639188005,
            "lng": 88.94287271817339,
            "district": "Natore",
            "district_code": "BD5069",
            "division": "Rajshahi",
            "division_code": "BD50",
            "name_bn": "বাগাতিপাড়া",
            "district_bn": "নাটোর"
        },
        {
            "name": "Bagha",
            "pcode": "508110",
            "lat": 24.21700504030493,
            "lng": 88.8481906271464,
            "district": "Rajshahi",
            "district_code": "BD5081",
            "division": "Rajshahi",
            "division_code": "BD50",
            "name_bn": "বাঘা",
            "district_bn": "রাজশাহী"
        },
        {
            "name": "Baghmara",
            "pcode": "508112",
            "lat": 24.591737635707744,
            "lng": 88.80061235049237,
            "district": "Rajshahi",
            "district_code": "BD5081",
            "division": "Rajshahi",
            "division_code": "BD50",
            "name_bn": "বাগমারা",
            "district_bn": "রাজশাহী"
        },
        {
            "name": "Bakshiganj",
            "pcode": "453907",
            "lat": 25.21263219186874,
            "lng": 89.85698716661621,
            "district": "Jamalpur",
            "district_code": "BD4539",
            "division": "Mymensingh",
            "division_code": "BD45",
            "name_bn": "বকশীগঞ্জ",
            "district_bn": "জামালপুর"
        },
        {
            "name": "Balia Kandi",
            "pcode": "308207",
            "lat": 23.6485205764457,
            "lng": 89.55638006553266,
            "district": "Rajbari",
            "district_code": "BD3082",
            "division": "Dhaka",
            "division_code": "BD30",
            "name_bn": "বালিয়াকান্দি",
            "district_bn": "রাজবাড়ী"
        },
        {
            "name": "Baliadangi",
            "pcode": "559408",
            "lat": 26.096585986696482,
            "lng": 88.25638373680363,
            "district": "Thakurgaon",
            "district_code": "BD5594",
            "division": "Rangpur",
            "division_code": "BD55",
            "name_bn": "বালিয়াডাঙ্গী",
            "district_bn": "ঠাকুরগাঁও"
        },
        {
            "name": "Bangshal",
            "pcode": "302605",
            "lat": 23.716739980111154,
            "lng": 90.40486513611117,
            "district": "Dhaka",
            "district_code": "BD3026",
            "division": "Dhaka",
            "division_code": "BD30",
            "name_bn": "বংশাল",
            "district_bn": "ঢাকা"
        },
        {
            "name": "Baraigram",
            "pcode": "506915",
            "lat": 24.27865971864399,
            "lng": 89.1460749659243,
            "district": "Natore",
            "district_code": "BD5069",
            "division": "Rajshahi",
            "division_code": "BD50",
            "name_bn": "বড়াইগ্রাম",
            "district_bn": "নাটোর"
        },
        {
            "name": "Basail",
            "pcode": "309309",
            "lat": 24.227402952102615,
            "lng": 90.04258644360262,
            "district": "Tangail",
            "district_code": "BD3093",
            "division": "Dhaka",
            "division_code": "BD30",
            "name_bn": "বাসাইল",
            "district_bn": "টাঙ্গাইল"
        },
        {
            "name": "Belkuchi",
            "pcode": "508811",
            "lat": 24.292754183036635,
            "lng": 89.69727522315858,
            "district": "Sirajganj",
            "district_code": "BD5088",
            "division": "Rajshahi",
            "division_code": "BD50",
            "name_bn": "বেলকুচি",
            "district_bn": "সিরাজগঞ্জ"
        },
        {
            "name": "Bera",
            "pcode": "507616",
            "lat": 23.950371241475782,
            "lng": 89.64742237765056,
            "district": "Pabna",
            "district_code": "BD5076",
            "division": "Rajshahi",
            "division_code": "BD50",
            "name_bn": "বেড়া",
            "district_bn": "পাবনা"
        },
        {
            "name": "Bhanga",
            "pcode": "302910",
            "lat": 23.38282359498136,
            "lng": 90.00952243671034,
            "district": "Faridpur",
            "district_code": "BD3029",
            "division": "Dhaka",
            "division_code": "BD30",
            "name_bn": "ভাঙ্গা",
            "district_bn": "ফরিদপুর"
        },
        {
            "name": "Bhangura",
            "pcode": "507619",
            "lat": 24.240622307120926,
            "lng": 89.39559415861544,
            "district": "Pabna",
            "district_code": "BD5076",
            "division": "Rajshahi",
            "division_code": "BD50",
            "name_bn": "ভাঙ্গুড়া",
            "district_bn": "পাবনা"
        },
        {
            "name": "Bhedarganj",
            "pcode": "308614",
            "lat": 23.26110297681107,
            "lng": 90.50949646791345,
            "district": "Shariatpur",
            "district_code": "BD3086",
            "division": "Dhaka",
            "division_code": "BD30",
            "name_bn": "ভেদরগঞ্জ",
            "district_bn": "শরীয়তপুর"
        },
        {
            "name": "Bholahat",
            "pcode": "507018",
            "lat": 24.88238591825005,
            "lng": 88.205539538853,
            "district": "Nawabganj",
            "district_code": "BD5070",
            "division": "Rajshahi",
            "division_code": "BD50",
            "name_bn": "ভোলাহাট",
            "district_bn": "নবাবগঞ্জ"
        },
        {
            "name": "Bhuapur",
            "pcode": "309319",
            "lat": 24.478421873279625,
            "lng": 89.82787597711832,
            "district": "Tangail",
            "district_code": "BD3093",
            "division": "Dhaka",
            "division_code": "BD30",
            "name_bn": "ভুয়াপুর",
            "district_bn": "টাঙ্গাইল"
        },
        {
            "name": "Bhurungamari",
            "pcode": "554906",
            "lat": 26.128661440908097,
            "lng": 89.66459779527017,
            "district": "Kurigram",
            "district_code": "BD5549",
            "division": "Rangpur",
            "division_code": "BD55",
            "name_bn": "ভূরুঙ্গামারী",
            "district_bn": "কুড়িগ্রাম"
        },
        {
            "name": "Biman Bandar",
            "pcode": "302606",
            "lat": 23.848193747200046,
            "lng": 90.40335561780006,
            "district": "Dhaka",
            "district_code": "BD3026",
            "division": "Dhaka",
            "division_code": "BD30",
            "name_bn": "বিমান বন্দর",
            "district_bn": "ঢাকা"
        },
        {
            "name": "Biral",
            "pcode": "552717",
            "lat": 25.646171501504636,
            "lng": 88.54744302468814,
            "district": "Dinajpur",
            "district_code": "BD5527",
            "division": "Rangpur",
            "division_code": "BD55",
            "name_bn": "বিরল",
            "district_bn": "দিনাজপুর"
        },
        {
            "name": "Birampur",
            "pcode": "552710",
            "lat": 25.38150580539053,
            "lng": 88.96527598697148,
            "district": "Dinajpur",
            "district_code": "BD5527",
            "division": "Rangpur",
            "division_code": "BD55",
            "name_bn": "বিরামপুর",
            "district_bn": "দিনাজপুর"
        },
        {
            "name": "Birganj",
            "pcode": "552712",
            "lat": 25.92193282792313,
            "lng": 88.6252560243334,
            "district": "Dinajpur",
            "district_code": "BD5527",
            "division": "Rangpur",
            "division_code": "BD55",
            "name_bn": "বীরগঞ্জ",
            "district_bn": "দিনাজপুর"
        },
        {
            "name": "Boalia",
            "pcode": "508122",
            "lat": 24.381866857064566,
            "lng": 88.61167419977426,
            "district": "Rajshahi",
            "district_code": "BD5081",
            "division": "Rajshahi",
            "division_code": "BD50",
            "name_bn": "বোয়ালিয়া",
            "district_bn": "রাজশাহী"
        },
        {
            "name": "Boalmari",
            "pcode": "302918",
            "lat": 23.40181547710896,
            "lng": 89.70681629498026,
            "district": "Faridpur",
            "district_code": "BD3029",
            "division": "Dhaka",
            "division_code": "BD30",
            "name_bn": "বোয়ালমারী",
            "district_bn": "ফরিদপুর"
        },
        {
            "name": "Bochaganj",
            "pcode": "552721",
            "lat": 25.79284286820914,
            "lng": 88.45953691441824,
            "district": "Dinajpur",
            "district_code": "BD5527",
            "division": "Rangpur",
            "division_code": "BD55",
            "name_bn": "বোচাগঞ্জ",
            "district_bn": "দিনাজপুর"
        },
        {
            "name": "Boda",
            "pcode": "557725",
            "lat": 26.2308237746027,
            "lng": 88.63485162388747,
            "district": "Panchagarh",
            "district_code": "BD5577",
            "division": "Rangpur",
            "division_code": "BD55",
            "name_bn": "বোদা",
            "district_bn": "পঞ্চগড়"
        },
        {
            "name": "Bogra Sadar",
            "pcode": "501020",
            "lat": 24.900346004011546,
            "lng": 89.3522901216897,
            "district": "Bogra",
            "district_code": "BD5010",
            "division": "Rajshahi",
            "division_code": "BD50",
            "name_bn": "বগুড়া সদর",
            "district_bn": "বগুড়া"
        },
        {
            "name": "Cantonment",
            "pcode": "302608",
            "lat": 23.814896456400046,
            "lng": 90.39780586160006,
            "district": "Dhaka",
            "district_code": "BD3026",
            "division": "Dhaka",
            "division_code": "BD30",
            "name_bn": "ক্যান্টনমেন্ট",
            "district_bn": "ঢাকা"
        },
        {
            "name": "Chak Bazar",
            "pcode": "302609",
            "lat": 23.718198595100052,
            "lng": 90.39465354020005,
            "district": "Dhaka",
            "district_code": "BD3026",
            "division": "Dhaka",
            "division_code": "BD30",
            "name_bn": "চক বাজার",
            "district_bn": "ঢাকা"
        },
        {
            "name": "Char Bhadrasan",
            "pcode": "302921",
            "lat": 23.587164849411813,
            "lng": 89.97643288490201,
            "district": "Faridpur",
            "district_code": "BD3029",
            "division": "Dhaka",
            "division_code": "BD30",
            "name_bn": "চর ভদ্রাসন",
            "district_bn": "ফরিদপুর"
        },
        {
            "name": "Char Rajibpur",
            "pcode": "554908",
            "lat": 25.44463303776005,
            "lng": 89.75882171240006,
            "district": "Kurigram",
            "district_code": "BD5549",
            "division": "Rangpur",
            "division_code": "BD55",
            "name_bn": "চর রাজিবপুর",
            "district_bn": "কুড়িগ্রাম"
        },
        {
            "name": "Charghat",
            "pcode": "508125",
            "lat": 24.311419623314002,
            "lng": 88.76964320590704,
            "district": "Rajshahi",
            "district_code": "BD5081",
            "division": "Rajshahi",
            "division_code": "BD50",
            "name_bn": "চারঘাট",
            "district_bn": "রাজশাহী"
        },
        {
            "name": "Chatmohar",
            "pcode": "507622",
            "lat": 24.22729721365046,
            "lng": 89.30370313280494,
            "district": "Pabna",
            "district_code": "BD5076",
            "division": "Rajshahi",
            "division_code": "BD50",
            "name_bn": "চাটমোহর",
            "district_bn": "পাবনা"
        },
        {
            "name": "Chauhali",
            "pcode": "508827",
            "lat": 24.143448473180904,
            "lng": 89.74545554376601,
            "district": "Sirajganj",
            "district_code": "BD5088",
            "division": "Rajshahi",
            "division_code": "BD50",
            "name_bn": "চৌহালী",
            "district_bn": "সিরাজগঞ্জ"
        },
        {
            "name": "Chilmari",
            "pcode": "554909",
            "lat": 25.554603587540864,
            "lng": 89.71290581600006,
            "district": "Kurigram",
            "district_code": "BD5549",
            "division": "Rangpur",
            "division_code": "BD55",
            "name_bn": "চিলমারী",
            "district_bn": "কুড়িগ্রাম"
        },
        {
            "name": "Chirirbandar",
            "pcode": "552730",
            "lat": 25.660802384850054,
            "lng": 88.79083888418006,
            "district": "Dinajpur",
            "district_code": "BD5527",
            "division": "Rangpur",
            "division_code": "BD55",
            "name_bn": "চিরিরবন্দর",
            "district_bn": "দিনাজপুর"
        },
        {
            "name": "Dakshinkhan",
            "pcode": "302610",
            "lat": 23.860594207473735,
            "lng": 90.43027011131585,
            "district": "Dhaka",
            "district_code": "BD3026",
            "division": "Dhaka",
            "division_code": "BD30",
            "name_bn": "দক্ষিণখান",
            "district_bn": "ঢাকা"
        },
        {
            "name": "Damudya",
            "pcode": "308625",
            "lat": 23.139228270875055,
            "lng": 90.41326010601792,
            "district": "Shariatpur",
            "district_code": "BD3086",
            "division": "Dhaka",
            "division_code": "BD30",
            "name_bn": "ডামুড্যা",
            "district_bn": "শরীয়তপুর"
        },
        {
            "name": "Darus Salam",
            "pcode": "302611",
            "lat": 23.78510689493338,
            "lng": 90.34549353240006,
            "district": "Dhaka",
            "district_code": "BD3026",
            "division": "Dhaka",
            "division_code": "BD30",
            "name_bn": "দারুস সালাম",
            "district_bn": "ঢাকা"
        },
        {
            "name": "Daulatpur",
            "pcode": "305610",
            "lat": 23.95580476294648,
            "lng": 89.8272119244197,
            "district": "Manikganj",
            "district_code": "BD3056",
            "division": "Dhaka",
            "division_code": "BD30",
            "name_bn": "দৌলতপুর",
            "district_bn": "মানিকগঞ্জ"
        },
        {
            "name": "Debiganj",
            "pcode": "557734",
            "lat": 26.16048066804767,
            "lng": 88.72032782426197,
            "district": "Panchagarh",
            "district_code": "BD5577",
            "division": "Rangpur",
            "division_code": "BD55",
            "name_bn": "দেবীগঞ্জ",
            "district_bn": "পঞ্চগড়"
        },
        {
            "name": "Delduar",
            "pcode": "309323",
            "lat": 24.139005052956097,
            "lng": 89.94254609942863,
            "district": "Tangail",
            "district_code": "BD3093",
            "division": "Dhaka",
            "division_code": "BD30",
            "name_bn": "দেলদুয়ার",
            "district_bn": "টাঙ্গাইল"
        },
        {
            "name": "Demra",
            "pcode": "302612",
            "lat": 23.724479572093806,
            "lng": 90.48152110562506,
            "district": "Dhaka",
            "district_code": "BD3026",
            "division": "Dhaka",
            "division_code": "BD30",
            "name_bn": "ডেমরা",
            "district_bn": "ঢাকা"
        },
        {
            "name": "Dewanganj",
            "pcode": "453915",
            "lat": 25.256112496548724,
            "lng": 89.77226069800005,
            "district": "Jamalpur",
            "district_code": "BD4539",
            "division": "Mymensingh",
            "division_code": "BD45",
            "name_bn": "দেওয়ানগঞ্জ",
            "district_bn": "জামালপুর"
        },
        {
            "name": "Dhamoirhat",
            "pcode": "506428",
            "lat": 25.130776824826494,
            "lng": 88.81371902104965,
            "district": "Naogaon",
            "district_code": "BD5064",
            "division": "Rajshahi",
            "division_code": "BD50",
            "name_bn": "ধামইরহাট",
            "district_bn": "নওগাঁ"
        },
        {
            "name": "Dhamrai",
            "pcode": "302614",
            "lat": 23.94874702048153,
            "lng": 90.12211994527784,
            "district": "Dhaka",
            "district_code": "BD3026",
            "division": "Dhaka",
            "division_code": "BD30",
            "name_bn": "ধামরাই",
            "district_bn": "ঢাকা"
        },
        {
            "name": "Dhanbari",
            "pcode": "309325",
            "lat": 24.67682947846072,
            "lng": 89.9315933344158,
            "district": "Tangail",
            "district_code": "BD3093",
            "division": "Dhaka",
            "division_code": "BD30",
            "name_bn": "ধনবাড়ী",
            "district_bn": "টাঙ্গাইল"
        },
        {
            "name": "Dhanmondi",
            "pcode": "302616",
            "lat": 23.743636830428613,
            "lng": 90.37483894785721,
            "district": "Dhaka",
            "district_code": "BD3026",
            "division": "Dhaka",
            "division_code": "BD30",
            "name_bn": "ধানমন্ডি",
            "district_bn": "ঢাকা"
        },
        {
            "name": "Dhunat",
            "pcode": "501027",
            "lat": 24.679156972611562,
            "lng": 89.55223716136697,
            "district": "Bogra",
            "district_code": "BD5010",
            "division": "Rajshahi",
            "division_code": "BD50",
            "name_bn": "ধুনট",
            "district_bn": "বগুড়া"
        },
        {
            "name": "Dhupchanchia",
            "pcode": "501033",
            "lat": 24.8808721216627,
            "lng": 89.1346731946145,
            "district": "Bogra",
            "district_code": "BD5010",
            "division": "Rajshahi",
            "division_code": "BD50",
            "name_bn": "দুপচাঁচিয়া",
            "district_bn": "বগুড়া"
        },
        {
            "name": "Abhaynagar",
            "pcode": "404104",
            "lat": 23.016620096623903,
            "lng": 89.42523466961472,
            "district": "Jessore",
            "district_code": "BD4041",
            "division": "Khulna",
            "division_code": "BD40",
            "name_bn": "অভয়নগর",
            "district_bn": "যশোর"
        },
        {
            "name": "Agailjhara",
            "pcode": "100602",
            "lat": 22.971465290348537,
            "lng": 90.1545819569849,
            "district": "Barisal",
            "district_code": "BD1006",
            "division": "Barisal",
            "division_code": "BD10",
            "name_bn": "আগৈলঝাড়া",
            "district_bn": "বরিশাল"
        },
        {
            "name": "Ajmiriganj",
            "pcode": "603602",
            "lat": 24.54359011180958,
            "lng": 91.28307785894292,
            "district": "Habiganj",
            "district_code": "BD6036",
            "division": "Sylhet",
            "division_code": "BD60",
            "name_bn": "আজমিরিগঞ্জ",
            "district_bn": "হবিগঞ্জ"
        },
        {
            "name": "Akhaura",
            "pcode": "201202",
            "lat": 23.844488463065623,
            "lng": 91.18786139532793,
            "district": "Brahamanbaria",
            "district_code": "BD2012",
            "division": "Chittagong",
            "division_code": "BD20",
            "name_bn": "আখাউড়া",
            "district_bn": "ব্রাহ্মণবাড়িয়া"
        },
        {
            "name": "Alamdanga",
            "pcode": "401807",
            "lat": 23.727784043330406,
            "lng": 88.9092559661697,
            "district": "Chuadanga",
            "district_code": "BD4018",
            "division": "Khulna",
            "division_code": "BD40",
            "name_bn": "আলমডাঙ্গা",
            "district_bn": "চুয়াডাঙ্গা"
        },
        {
            "name": "Alikadam",
            "pcode": "200304",
            "lat": 21.594509241967266,
            "lng": 92.39428384319679,
            "district": "Bandarban",
            "district_code": "BD2003",
            "division": "Chittagong",
            "division_code": "BD20",
            "name_bn": "আলীকদম",
            "district_bn": "বান্দরবান"
        },
        {
            "name": "Amtali",
            "pcode": "100409",
            "lat": 22.07980898400005,
            "lng": 90.21761929270885,
            "district": "Barguna",
            "district_code": "BD1004",
            "division": "Barisal",
            "division_code": "BD10",
            "name_bn": "আমতলী",
            "district_bn": "বরগুনা"
        },
        {
            "name": "Anowara",
            "pcode": "201504",
            "lat": 22.183899591336786,
            "lng": 91.88944933303068,
            "district": "Chittagong",
            "district_code": "BD2015",
            "division": "Chittagong",
            "division_code": "BD20",
            "name_bn": "আনোয়ারা",
            "district_bn": "চট্টগ্রাম"
        },
        {
            "name": "Araihazar",
            "pcode": "306702",
            "lat": 23.778146418706573,
            "lng": 90.66275440359787,
            "district": "Narayanganj",
            "district_code": "BD3067",
            "division": "Dhaka",
            "division_code": "BD30",
            "name_bn": "আড়াইহাজার",
            "district_bn": "নারায়ণগঞ্জ"
        },
        {
            "name": "Ashuganj",
            "pcode": "201233",
            "lat": 24.017957127105312,
            "lng": 91.02540664381586,
            "district": "Brahamanbaria",
            "district_code": "BD2012",
            "division": "Chittagong",
            "division_code": "BD20",
            "name_bn": "আশুগঞ্জ",
            "district_bn": "ব্রাহ্মণবাড়িয়া"
        },
        {
            "name": "Assasuni",
            "pcode": "408704",
            "lat": 22.51501046202822,
            "lng": 89.18042429294373,
            "district": "Satkhira",
            "district_code": "BD4087",
            "division": "Khulna",
            "division_code": "BD40",
            "name_bn": "আশাশুনি",
            "district_bn": "সাতক্ষীরা"
        },
        {
            "name": "Atpara",
            "pcode": "457204",
            "lat": 24.788506649117696,
            "lng": 90.88364615131378,
            "district": "Netrakona",
            "district_code": "BD4572",
            "division": "Mymensingh",
            "division_code": "BD45",
            "name_bn": "আটপাড়া",
            "district_bn": "নেত্রকোনা"
        },
        {
            "name": "Austagram",
            "pcode": "304802",
            "lat": 24.328737168908305,
            "lng": 91.12410653521107,
            "district": "Kishoreganj",
            "district_code": "BD3048",
            "division": "Dhaka",
            "division_code": "BD30",
            "name_bn": "অষ্টগ্রাম",
            "district_bn": "কিশোরগঞ্জ"
        },
        {
            "name": "Babuganj",
            "pcode": "100603",
            "lat": 22.816213792714336,
            "lng": 90.31748198925402,
            "district": "Barisal",
            "district_code": "BD1006",
            "division": "Barisal",
            "division_code": "BD10",
            "name_bn": "বাবুগঞ্জ",
            "district_bn": "বরিশাল"
        },
        {
            "name": "Bagerhat Sadar",
            "pcode": "400108",
            "lat": 22.67098571231781,
            "lng": 89.75742252374772,
            "district": "Bagerhat",
            "district_code": "BD4001",
            "division": "Khulna",
            "division_code": "BD40",
            "name_bn": "বাগেরহাট সদর",
            "district_bn": "বাগেরহাট"
        },
        {
            "name": "Baghai Chhari",
            "pcode": "208407",
            "lat": 23.40401159494913,
            "lng": 92.25495388312969,
            "district": "Rangamati",
            "district_code": "BD2084",
            "division": "Chittagong",
            "division_code": "BD20",
            "name_bn": "বাঘাইছড়ি",
            "district_bn": "রাঙ্গামাটি"
        },
        {
            "name": "Bagher Para",
            "pcode": "404109",
            "lat": 23.244687412042424,
            "lng": 89.32822220024583,
            "district": "Jessore",
            "district_code": "BD4041",
            "division": "Khulna",
            "division_code": "BD40",
            "name_bn": "বাঘের পাড়া",
            "district_bn": "যশোর"
        },
        {
            "name": "Bahubal",
            "pcode": "603605",
            "lat": 24.36657653603577,
            "lng": 91.54052497588101,
            "district": "Habiganj",
            "district_code": "BD6036",
            "division": "Sylhet",
            "division_code": "BD60",
            "name_bn": "বাহুবল",
            "district_bn": "হবিগঞ্জ"
        },
        {
            "name": "Bajitpur",
            "pcode": "304806",
            "lat": 24.227991527228966,
            "lng": 90.93554638955428,
            "district": "Kishoreganj",
            "district_code": "BD3048",
            "division": "Dhaka",
            "division_code": "BD30",
            "name_bn": "বাজিতপুর",
            "district_bn": "কিশোরগঞ্জ"
        },
        {
            "name": "Bakalia",
            "pcode": "201510",
            "lat": 22.350254922250056,
            "lng": 91.85621442025005,
            "district": "Chittagong",
            "district_code": "BD2015",
            "division": "Chittagong",
            "division_code": "BD20",
            "name_bn": "বাকলিয়া",
            "district_bn": "চট্টগ্রাম"
        },
        {
            "name": "Bakerganj",
            "pcode": "100607",
            "lat": 22.561429496044354,
            "lng": 90.39809533382918,
            "district": "Barisal",
            "district_code": "BD1006",
            "division": "Barisal",
            "division_code": "BD10",
            "name_bn": "বাকেরগঞ্জ",
            "district_bn": "বরিশাল"
        },
        {
            "name": "Balaganj",
            "pcode": "609108",
            "lat": 24.702627864991356,
            "lng": 91.77492721800006,
            "district": "Sylhet",
            "district_code": "BD6091",
            "division": "Sylhet",
            "division_code": "BD60",
            "name_bn": "বালাগঞ্জ",
            "district_bn": "সিলেট"
        },
        {
            "name": "Bamna",
            "pcode": "100419",
            "lat": 22.26262229044648,
            "lng": 90.04498146321434,
            "district": "Barguna",
            "district_code": "BD1004",
            "division": "Barisal",
            "division_code": "BD10",
            "name_bn": "বামনা",
            "district_bn": "বরগুনা"
        },
        {
            "name": "Banari Para",
            "pcode": "100610",
            "lat": 22.80817345298635,
            "lng": 90.12142125487678,
            "district": "Barisal",
            "district_code": "BD1006",
            "division": "Barisal",
            "division_code": "BD10",
            "name_bn": "বানারীপাড়া",
            "district_bn": "বরিশাল"
        },
        {
            "name": "Banchharampur",
            "pcode": "201204",
            "lat": 23.772419888824377,
            "lng": 90.8112052377298,
            "district": "Brahamanbaria",
            "district_code": "BD2012",
            "division": "Chittagong",
            "division_code": "BD20",
            "name_bn": "বাঞ্ছারামপুর",
            "district_bn": "ব্রাহ্মণবাড়িয়া"
        },
        {
            "name": "Bandar",
            "pcode": "306706",
            "lat": 23.640225144750055,
            "lng": 90.54072097180561,
            "district": "Narayanganj",
            "district_code": "BD3067",
            "division": "Dhaka",
            "division_code": "BD30",
            "name_bn": "বন্দর",
            "district_bn": "নারায়ণগঞ্জ"
        },
        {
            "name": "Bandarban Sadar",
            "pcode": "200314",
            "lat": 22.159432848043913,
            "lng": 92.2069811782632,
            "district": "Bandarban",
            "district_code": "BD2003",
            "division": "Chittagong",
            "division_code": "BD20",
            "name_bn": "বান্দরবান সদর",
            "district_bn": "বান্দরবান"
        },
        {
            "name": "Baniachong",
            "pcode": "603611",
            "lat": 24.50818221888411,
            "lng": 91.35822171214498,
            "district": "Habiganj",
            "district_code": "BD6036",
            "division": "Sylhet",
            "division_code": "BD60",
            "name_bn": "বানিয়াচং",
            "district_bn": "হবিগঞ্জ"
        },
        {
            "name": "Banshkhali",
            "pcode": "201508",
            "lat": 22.0524844220269,
            "lng": 91.93520907385911,
            "district": "Chittagong",
            "district_code": "BD2015",
            "division": "Chittagong",
            "division_code": "BD20",
            "name_bn": "বাঁশখালী",
            "district_bn": "চট্টগ্রাম"
        },
        {
            "name": "Barguna Sadar",
            "pcode": "100428",
            "lat": 22.137725184092158,
            "lng": 90.10195115527637,
            "district": "Barguna",
            "district_code": "BD1004",
            "division": "Barisal",
            "division_code": "BD10",
            "name_bn": "বরগুনা সদর",
            "district_bn": "বরগুনা"
        },
        {
            "name": "Barhatta",
            "pcode": "457209",
            "lat": 24.926637694178915,
            "lng": 90.87489875642282,
            "district": "Netrakona",
            "district_code": "BD4572",
            "division": "Mymensingh",
            "division_code": "BD45",
            "name_bn": "বারহাট্টা",
            "district_bn": "নেত্রকোনা"
        },
        {
            "name": "Barisal Sadar (Kotwali)",
            "pcode": "100651",
            "lat": 22.71187817291777,
            "lng": 90.42209790287981,
            "district": "Barisal",
            "district_code": "BD1006",
            "division": "Barisal",
            "division_code": "BD10",
            "name_bn": "বরিশাল সদর (কোতয়ালী)",
            "district_bn": "বরিশাল"
        },
        {
            "name": "Barkal",
            "pcode": "208421",
            "lat": 22.86719980705931,
            "lng": 92.36388892842228,
            "district": "Rangamati",
            "district_code": "BD2084",
            "division": "Chittagong",
            "division_code": "BD20",
            "name_bn": "বরকল",
            "district_bn": "রাঙ্গামাটি"
        },
        {
            "name": "Barlekha",
            "pcode": "605814",
            "lat": 24.7086505095115,
            "lng": 92.15574290162601,
            "district": "Maulvibazar",
            "district_code": "BD6058",
            "division": "Sylhet",
            "division_code": "BD60",
            "name_bn": "বড়লেখা",
            "district_bn": "মৌলভীবাজার"
        },
        {
            "name": "Barura",
            "pcode": "201909",
            "lat": 23.351192106738687,
            "lng": 91.03834612431824,
            "district": "Comilla",
            "district_code": "BD2019",
            "division": "Chittagong",
            "division_code": "BD20",
            "name_bn": "বরুড়া",
            "district_bn": "কুমিল্লা"
        },
        {
            "name": "Batiaghata",
            "pcode": "404712",
            "lat": 22.714337848569944,
            "lng": 89.51335430347318,
            "district": "Khulna",
            "district_code": "BD4047",
            "division": "Khulna",
            "division_code": "BD40",
            "name_bn": "বটিয়াঘাটা",
            "district_bn": "খুলনা"
        },
        {
            "name": "Bauphal",
            "pcode": "107838",
            "lat": 22.441992605863994,
            "lng": 90.54209709490482,
            "district": "Patuakhali",
            "district_code": "BD1078",
            "division": "Barisal",
            "division_code": "BD10",
            "name_bn": "বাউফল",
            "district_bn": "পটুয়াখালী"
        },
        {
            "name": "Bayejid Bostami",
            "pcode": "201506",
            "lat": 22.41212293174291,
            "lng": 91.8099326274572,
            "district": "Chittagong",
            "district_code": "BD2015",
            "division": "Chittagong",
            "division_code": "BD20",
            "name_bn": "বায়েজিদ বোস্তামী",
            "district_bn": "চট্টগ্রাম"
        },
        {
            "name": "Beani Bazar",
            "pcode": "609117",
            "lat": 24.8504488759817,
            "lng": 92.14978303029363,
            "district": "Sylhet",
            "district_code": "BD6091",
            "division": "Sylhet",
            "division_code": "BD60",
            "name_bn": "বিয়ানীবাজার",
            "district_bn": "সিলেট"
        },
        {
            "name": "Begumganj",
            "pcode": "207507",
            "lat": 22.934670654133384,
            "lng": 91.10842390907783,
            "district": "Noakhali",
            "district_code": "BD2075",
            "division": "Chittagong",
            "division_code": "BD20",
            "name_bn": "বেগমগঞ্জ",
            "district_bn": "নোয়াখালী"
        },
        {
            "name": "Belabo",
            "pcode": "306807",
            "lat": 24.102490095376673,
            "lng": 90.85362520431174,
            "district": "Narsingdi",
            "district_code": "BD3068",
            "division": "Dhaka",
            "division_code": "BD30",
            "name_bn": "বেলাবো",
            "district_bn": "নরসিংদী"
        },
        {
            "name": "Belai Chhari",
            "pcode": "208429",
            "lat": 22.25400897687102,
            "lng": 92.52528771917747,
            "district": "Rangamati",
            "district_code": "BD2084",
            "division": "Chittagong",
            "division_code": "BD20",
            "name_bn": "বিলাইছড়ি",
            "district_bn": "রাঙ্গামাটি"
        },
        {
            "name": "Betagi",
            "pcode": "100447",
            "lat": 22.35272598342313,
            "lng": 90.15861216928212,
            "district": "Barguna",
            "district_code": "BD1004",
            "division": "Barisal",
            "division_code": "BD10",
            "name_bn": "বেতাগী",
            "district_bn": "বরগুনা"
        },
        {
            "name": "Bhairab",
            "pcode": "304811",
            "lat": 24.09936337562968,
            "lng": 90.96805927588895,
            "district": "Kishoreganj",
            "district_code": "BD3048",
            "division": "Dhaka",
            "division_code": "BD30",
            "name_bn": "ভৈরব",
            "district_bn": "কিশোরগঞ্জ"
        },
        {
            "name": "Bhaluka",
            "pcode": "456113",
            "lat": 24.38594866450448,
            "lng": 90.37121152524786,
            "district": "Mymensingh",
            "district_code": "BD4561",
            "division": "Mymensingh",
            "division_code": "BD45",
            "name_bn": "ভালুকা",
            "district_bn": "ময়মনসিংহ"
        },
        {
            "name": "Bhandaria",
            "pcode": "107914",
            "lat": 22.453755992578998,
            "lng": 90.0296745795369,
            "district": "Pirojpur",
            "district_code": "BD1079",
            "division": "Barisal",
            "division_code": "BD10",
            "name_bn": "ভান্ডারিয়া",
            "district_bn": "পিরোজপুর"
        },
        {
            "name": "Bheramara",
            "pcode": "405015",
            "lat": 24.053979063568228,
            "lng": 88.9716871952955,
            "district": "Kushtia",
            "district_code": "BD4050",
            "division": "Khulna",
            "division_code": "BD40",
            "name_bn": "ভেড়ামারা",
            "district_bn": "কুষ্টিয়া"
        },
        {
            "name": "Bhola Sadar",
            "pcode": "100918",
            "lat": 22.681910097910574,
            "lng": 90.61184562024744,
            "district": "Bhola",
            "district_code": "BD1009",
            "division": "Barisal",
            "division_code": "BD10",
            "name_bn": "ভোলা সদর",
            "district_bn": "ভোলা"
        },
        {
            "name": "Bijoynagar",
            "pcode": "201207",
            "lat": 23.997959075479216,
            "lng": 91.22389468487506,
            "district": "Brahamanbaria",
            "district_code": "BD2012",
            "division": "Chittagong",
            "division_code": "BD20",
            "name_bn": "বিজয়নগর",
            "district_bn": "ব্রাহ্মণবাড়িয়া"
        },
        {
            "name": "Bishwambarpur",
            "pcode": "609018",
            "lat": 25.11029169240454,
            "lng": 91.29970341700006,
            "district": "Sunamganj",
            "district_code": "BD6090",
            "division": "Sylhet",
            "division_code": "BD60",
            "name_bn": "বিশ্বম্ভরপুর",
            "district_bn": "সুনামগঞ্জ"
        },
        {
            "name": "Bishwanath",
            "pcode": "609120",
            "lat": 24.83831238152257,
            "lng": 91.72380944671178,
            "district": "Sylhet",
            "district_code": "BD6091",
            "division": "Sylhet",
            "division_code": "BD60",
            "name_bn": "বিশ্বনাথ",
            "district_bn": "সিলেট"
        },
        {
            "name": "Boalkhali",
            "pcode": "201512",
            "lat": 22.371707516935533,
            "lng": 91.9769104648549,
            "district": "Chittagong",
            "district_code": "BD2015",
            "division": "Chittagong",
            "division_code": "BD20",
            "name_bn": "বোয়ালখালী",
            "district_bn": "চট্টগ্রাম"
        },
        {
            "name": "Brahman Para",
            "pcode": "201915",
            "lat": 23.6471495286203,
            "lng": 91.0932305458355,
            "district": "Comilla",
            "district_code": "BD2019",
            "division": "Chittagong",
            "division_code": "BD20",
            "name_bn": "ব্রাহ্মণপাড়া",
            "district_bn": "কুমিল্লা"
        },
        {
            "name": "Brahmanbaria Sadar",
            "pcode": "201213",
            "lat": 23.9592721197789,
            "lng": 91.12448580525006,
            "district": "Brahamanbaria",
            "district_code": "BD2012",
            "division": "Chittagong",
            "division_code": "BD20",
            "name_bn": "ব্রাহ্মণবাড়িয়া সদর",
            "district_bn": "ব্রাহ্মণবাড়িয়া"
        },
        {
            "name": "Burhanuddin",
            "pcode": "100921",
            "lat": 22.48585969814881,
            "lng": 90.68759762019015,
            "district": "Bhola",
            "district_code": "BD1009",
            "division": "Barisal",
            "division_code": "BD10",
            "name_bn": "বোরহানউদ্দিন",
            "district_bn": "ভোলা"
        },
        {
            "name": "Burichang",
            "pcode": "201918",
            "lat": 23.52980774119236,
            "lng": 91.11390402198724,
            "district": "Comilla",
            "district_code": "BD2019",
            "division": "Chittagong",
            "division_code": "BD20",
            "name_bn": "বুড়িচং",
            "district_bn": "কুমিল্লা"
        },
        {
            "name": "Chakaria",
            "pcode": "202216",
            "lat": 21.76602825955617,
            "lng": 92.08026507598474,
            "district": "Cox's Bazar",
            "district_code": "BD2022",
            "division": "Chittagong",
            "division_code": "BD20",
            "name_bn": "চকরিয়া",
            "district_bn": "কক্সবাজার"
        },
        {
            "name": "Chandanaish",
            "pcode": "201518",
            "lat": 22.213248797237338,
            "lng": 92.063596682017,
            "district": "Chittagong",
            "district_code": "BD2015",
            "division": "Chittagong",
            "division_code": "BD20",
            "name_bn": "চন্দনাইশ",
            "district_bn": "চট্টগ্রাম"
        },
        {
            "name": "Chandgaon",
            "pcode": "201519",
            "lat": 22.39265940246434,
            "lng": 91.86743979746436,
            "district": "Chittagong",
            "district_code": "BD2015",
            "division": "Chittagong",
            "division_code": "BD20",
            "name_bn": "চাঁদগাঁও",
            "district_bn": "চট্টগ্রাম"
        },
        {
            "name": "Chandina",
            "pcode": "201927",
            "lat": 23.44167357021844,
            "lng": 90.9516395892989,
            "district": "Comilla",
            "district_code": "BD2019",
            "division": "Chittagong",
            "division_code": "BD20",
            "name_bn": "চান্দিনা",
            "district_bn": "কুমিল্লা"
        },
        {
            "name": "Chandpur Sadar",
            "pcode": "201322",
            "lat": 23.243510071073043,
            "lng": 90.66796211017524,
            "district": "Chandpur",
            "district_code": "BD2013",
            "division": "Chittagong",
            "division_code": "BD20",
            "name_bn": "চাঁদপুর সদর",
            "district_bn": "চাঁদপুর"
        },
        {
            "name": "Char Fasson",
            "pcode": "100925",
            "lat": 22.029918610334583,
            "lng": 90.71174220279862,
            "district": "Bhola",
            "district_code": "BD1009",
            "division": "Barisal",
            "division_code": "BD10",
            "name_bn": "চর ফ্যাশন",
            "district_bn": "ভোলা"
        },
        {
            "name": "Chatkhil",
            "pcode": "207510",
            "lat": 23.05294482060005,
            "lng": 90.96366140003535,
            "district": "Noakhali",
            "district_code": "BD2075",
            "division": "Chittagong",
            "division_code": "BD20",
            "name_bn": "চাটখিল",
            "district_bn": "নোয়াখালী"
        },
        {
            "name": "Chauddagram",
            "pcode": "201931",
            "lat": 23.222564048124138,
            "lng": 91.27194676986137,
            "district": "Comilla",
            "district_code": "BD2019",
            "division": "Chittagong",
            "division_code": "BD20",
            "name_bn": "চৌদ্দগ্রাম",
            "district_bn": "কুমিল্লা"
        },
        {
            "name": "Chaugachha",
            "pcode": "404111",
            "lat": 23.267764049896602,
            "lng": 89.01797540739662,
            "district": "Jessore",
            "district_code": "BD4041",
            "division": "Khulna",
            "division_code": "BD40",
            "name_bn": "চৌগাছা",
            "district_bn": "যশোর"
        },
        {
            "name": "Chhagalnaiya",
            "pcode": "203014",
            "lat": 23.00503383071269,
            "lng": 91.50632821066672,
            "district": "Feni",
            "district_code": "BD2030",
            "division": "Chittagong",
            "division_code": "BD20",
            "name_bn": "ছাগলনাইয়া",
            "district_bn": "ফেনী"
        },
        {
            "name": "Chhatak",
            "pcode": "609023",
            "lat": 24.965600857580508,
            "lng": 91.63340200087363,
            "district": "Sunamganj",
            "district_code": "BD6090",
            "division": "Sylhet",
            "division_code": "BD60",
            "name_bn": "ছাতক",
            "district_bn": "সুনামগঞ্জ"
        },
        {
            "name": "Chitalmari",
            "pcode": "400114",
            "lat": 22.80903557851141,
            "lng": 89.86285313567052,
            "district": "Bagerhat",
            "district_code": "BD4001",
            "division": "Khulna",
            "division_code": "BD40",
            "name_bn": "চিতলমারী",
            "district_bn": "বাগেরহাট"
        },
        {
            "name": "Chittagong Port",
            "pcode": "201520",
            "lat": 22.306814131166718,
            "lng": 91.79006423511117,
            "district": "Chittagong",
            "district_code": "BD2015",
            "division": "Chittagong",
            "division_code": "BD20",
            "name_bn": "চট্টগ্রাম বন্দর",
            "district_bn": "চট্টগ্রাম"
        },
        {
            "name": "Chuadanga Sadar",
            "pcode": "401823",
            "lat": 23.585036265638703,
            "lng": 88.88176085935301,
            "district": "Chuadanga",
            "district_code": "BD4018",
            "division": "Khulna",
            "division_code": "BD40",
            "name_bn": "চুয়াডাঙ্গা সদর",
            "district_bn": "চুয়াডাঙ্গা"
        },
        {
            "name": "Chunarughat",
            "pcode": "603626",
            "lat": 24.193782984302135,
            "lng": 91.51768730516672,
            "district": "Habiganj",
            "district_code": "BD6036",
            "division": "Sylhet",
            "division_code": "BD60",
            "name_bn": "চুনারুঘাট",
            "district_bn": "হবিগঞ্জ"
        },
        {
            "name": "Comilla Adarsha Sadar",
            "pcode": "201967",
            "lat": 23.466565285512246,
            "lng": 91.15738530553665,
            "district": "Comilla",
            "district_code": "BD2019",
            "division": "Chittagong",
            "division_code": "BD20",
            "name_bn": "কুমিল্লা আদর্শ সদর",
            "district_bn": "কুমিল্লা"
        },
        {
            "name": "Comilla Sadar Dakshin",
            "pcode": "201933",
            "lat": 23.349983803904397,
            "lng": 91.19224416158266,
            "district": "Comilla",
            "district_code": "BD2019",
            "division": "Chittagong",
            "division_code": "BD20",
            "name_bn": "কুমিল্লা সদর দক্ষিণ",
            "district_bn": "কুমিল্লা"
        },
        {
            "name": "Companiganj",
            "pcode": "207521",
            "lat": 22.778179145058118,
            "lng": 91.29903153209038,
            "district": "Noakhali",
            "district_code": "BD2075",
            "division": "Chittagong",
            "division_code": "BD20",
            "name_bn": "কোম্পানীগঞ্জ",
            "district_bn": "নোয়াখালী"
        },
        {
            "name": "Companiganj",
            "pcode": "609127",
            "lat": 25.07580510280347,
            "lng": 91.75957461130776,
            "district": "Sylhet",
            "district_code": "BD6091",
            "division": "Sylhet",
            "division_code": "BD60",
            "name_bn": "কোম্পানীগঞ্জ",
            "district_bn": "সিলেট"
        },
        {
            "name": "Cox's Bazar Sadar",
            "pcode": "202224",
            "lat": 21.510327123353584,
            "lng": 92.05537591151521,
            "district": "Cox's Bazar",
            "district_code": "BD2022",
            "division": "Chittagong",
            "division_code": "BD20",
            "name_bn": "কক্সবাজার সদর",
            "district_bn": "কক্সবাজার"
        },
        {
            "name": "Dacope",
            "pcode": "404717",
            "lat": 22.35120150671132,
            "lng": 89.520001223824,
            "district": "Khulna",
            "district_code": "BD4047",
            "division": "Khulna",
            "division_code": "BD40",
            "name_bn": "দাকোপ",
            "district_bn": "খুলনা"
        },
        {
            "name": "Daganbhuiyan",
            "pcode": "203025",
            "lat": 22.973931684385594,
            "lng": 91.30260207219283,
            "district": "Feni",
            "district_code": "BD2030",
            "division": "Chittagong",
            "division_code": "BD20",
            "name_bn": "দাগনভূঞা",
            "district_bn": "ফেনী"
        },
        {
            "name": "Dakshin Sunamganj",
            "pcode": "609027",
            "lat": 24.91531394122227,
            "lng": 91.39428359015879,
            "district": "Sunamganj",
            "district_code": "BD6090",
            "division": "Sylhet",
            "division_code": "BD60",
            "name_bn": "দক্ষিণ সুনামগঞ্জ",
            "district_bn": "সুনামগঞ্জ"
        },
        {
            "name": "Dakshin Surma",
            "pcode": "609131",
            "lat": 24.812800472867394,
            "lng": 91.88071071404087,
            "district": "Sylhet",
            "district_code": "BD6091",
            "division": "Sylhet",
            "division_code": "BD60",
            "name_bn": "দক্ষিণ সুরমা",
            "district_bn": "সিলেট"
        },
        {
            "name": "Damurhuda",
            "pcode": "401831",
            "lat": 23.586997928040454,
            "lng": 88.74452622809096,
            "district": "Chuadanga",
            "district_code": "BD4018",
            "division": "Khulna",
            "division_code": "BD40",
            "name_bn": "দামুড়হুদা",
            "district_bn": "চুয়াডাঙ্গা"
        },
        {
            "name": "Dashmina",
            "pcode": "107852",
            "lat": 22.24685014163821,
            "lng": 90.5598335283619,
            "district": "Patuakhali",
            "district_code": "BD1078",
            "division": "Barisal",
            "division_code": "BD10",
            "name_bn": "দশমিনা",
            "district_bn": "পটুয়াখালী"
        },
        {
            "name": "Daudkandi",
            "pcode": "201936",
            "lat": 23.502270027107194,
            "lng": 90.78018090786911,
            "district": "Comilla",
            "district_code": "BD2019",
            "division": "Chittagong",
            "division_code": "BD20",
            "name_bn": "দাউদকান্দি",
            "district_bn": "কুমিল্লা"
        },
        {
            "name": "Daulatkhan",
            "pcode": "100929",
            "lat": 22.635048959462548,
            "lng": 90.72227690773755,
            "district": "Bhola",
            "district_code": "BD1009",
            "division": "Barisal",
            "division_code": "BD10",
            "name_bn": "দৌলতখান",
            "district_bn": "ভোলা"
        },
        {
            "name": "Daulatpur",
            "pcode": "404721",
            "lat": 22.876892513263204,
            "lng": 89.50794625215795,
            "district": "Khulna",
            "district_code": "BD4047",
            "division": "Khulna",
            "division_code": "BD40",
            "name_bn": "দৌলতপুর",
            "district_bn": "খুলনা"
        },
        {
            "name": "Daulatpur",
            "pcode": "405039",
            "lat": 24.015340276364334,
            "lng": 88.82730434020006,
            "district": "Kushtia",
            "district_code": "BD4050",
            "division": "Khulna",
            "division_code": "BD40",
            "name_bn": "দৌলতপুর",
            "district_bn": "কুষ্টিয়া"
        },
        {
            "name": "Debhata",
            "pcode": "408725",
            "lat": 22.603084050600053,
            "lng": 89.02281807488241,
            "district": "Satkhira",
            "district_code": "BD4087",
            "division": "Khulna",
            "division_code": "BD40",
            "name_bn": "দেবহাটা",
            "district_bn": "সাতক্ষীরা"
        },
        {
            "name": "Debidwar",
            "pcode": "201940",
            "lat": 23.581689791680045,
            "lng": 90.99884640213006,
            "district": "Comilla",
            "district_code": "BD2019",
            "division": "Chittagong",
            "division_code": "BD20",
            "name_bn": "দেবিদ্বার",
            "district_bn": "কুমিল্লা"
        },
        {
            "name": "Derai",
            "pcode": "609029",
            "lat": 24.77618079927591,
            "lng": 91.32643067750006,
            "district": "Sunamganj",
            "district_code": "BD6090",
            "division": "Sylhet",
            "division_code": "BD60",
            "name_bn": "দিরাই",
            "district_bn": "সুনামগঞ্জ"
        },
        {
            "name": "Dharampasha",
            "pcode": "609032",
            "lat": 25.00806158331021,
            "lng": 91.0442685127808,
            "district": "Sunamganj",
            "district_code": "BD6090",
            "division": "Sylhet",
            "division_code": "BD60",
            "name_bn": "ধর্মপাশা",
            "district_bn": "সুনামগঞ্জ"
        },
        {
            "name": "Dhobaura",
            "pcode": "456116",
            "lat": 25.093534524971208,
            "lng": 90.52796856612507,
            "district": "Mymensingh",
            "district_code": "BD4561",
            "division": "Mymensingh",
            "division_code": "BD45",
            "name_bn": "ধোবাউড়া",
            "district_bn": "ময়মনসিংহ"
        },
        {
            "name": "Dimla",
            "pcode": "557312",
            "lat": 26.180878782233382,
            "lng": 88.97436760440006,
            "district": "Nilphamari",
            "district_code": "BD5573",
            "division": "Rangpur",
            "division_code": "BD55",
            "name_bn": "ডিমলা",
            "district_bn": "নীলফামারী"
        },
        {
            "name": "Dinajpur Sadar",
            "pcode": "552764",
            "lat": 25.60513479973559,
            "lng": 88.67954423485129,
            "district": "Dinajpur",
            "district_code": "BD5527",
            "division": "Rangpur",
            "division_code": "BD55",
            "name_bn": "দিনাজপুর সদর",
            "district_bn": "দিনাজপুর"
        },
        {
            "name": "Dohar",
            "pcode": "302618",
            "lat": 23.602510868557193,
            "lng": 90.11357243872864,
            "district": "Dhaka",
            "district_code": "BD3026",
            "division": "Dhaka",
            "division_code": "BD30",
            "name_bn": "দোহার",
            "district_bn": "ঢাকা"
        },
        {
            "name": "Domar",
            "pcode": "557315",
            "lat": 26.16407379955214,
            "lng": 88.82089780276048,
            "district": "Nilphamari",
            "district_code": "BD5573",
            "division": "Rangpur",
            "division_code": "BD55",
            "name_bn": "ডোমার",
            "district_bn": "নীলফামারী"
        },
        {
            "name": "Durgapur",
            "pcode": "508131",
            "lat": 24.46663392923082,
            "lng": 88.76331454390116,
            "district": "Rajshahi",
            "district_code": "BD5081",
            "division": "Rajshahi",
            "division_code": "BD50",
            "name_bn": "দুর্গাপুর",
            "district_bn": "রাজশাহী"
        },
        {
            "name": "Faridpur",
            "pcode": "507633",
            "lat": 24.163724585549073,
            "lng": 89.44583947538241,
            "district": "Pabna",
            "district_code": "BD5076",
            "division": "Rajshahi",
            "division_code": "BD50",
            "name_bn": "ফরিদপুর",
            "district_bn": "পাবনা"
        },
        {
            "name": "Faridpur Sadar",
            "pcode": "302947",
            "lat": 23.594441662560797,
            "lng": 89.80467724944866,
            "district": "Faridpur",
            "district_code": "BD3029",
            "division": "Dhaka",
            "division_code": "BD30",
            "name_bn": "ফরিদপুর সদর",
            "district_bn": "ফরিদপুর"
        },
        {
            "name": "Fulbari",
            "pcode": "552738",
            "lat": 25.474832735197857,
            "lng": 88.89714749971435,
            "district": "Dinajpur",
            "district_code": "BD5527",
            "division": "Rangpur",
            "division_code": "BD55",
            "name_bn": "ফুলবাড়ী",
            "district_bn": "দিনাজপুর"
        },
        {
            "name": "Fulchhari",
            "pcode": "553221",
            "lat": 25.24806552258257,
            "lng": 89.6439912170583,
            "district": "Gaibandha",
            "district_code": "BD5532",
            "division": "Rangpur",
            "division_code": "BD55",
            "name_bn": "ফুলছড়ি",
            "district_bn": "গাইবান্ধা"
        },
        {
            "name": "Gabtali",
            "pcode": "501040",
            "lat": 24.89205078801744,
            "lng": 89.46392698794789,
            "district": "Bogra",
            "district_code": "BD5010",
            "division": "Rajshahi",
            "division_code": "BD50",
            "name_bn": "গাবতলী",
            "district_bn": "বগুড়া"
        },
        {
            "name": "Gaibandha Sadar",
            "pcode": "553224",
            "lat": 25.345610502281097,
            "lng": 89.57995501732685,
            "district": "Gaibandha",
            "district_code": "BD5532",
            "division": "Rangpur",
            "division_code": "BD55",
            "name_bn": "গাইবান্ধা সদর",
            "district_bn": "গাইবান্ধা"
        },
        {
            "name": "Gangachara",
            "pcode": "558527",
            "lat": 25.866464229934014,
            "lng": 89.20155367564156,
            "district": "Rangpur",
            "district_code": "BD5585",
            "division": "Rangpur",
            "division_code": "BD55",
            "name_bn": "গঙ্গাচড়া",
            "district_bn": "রংপুর"
        },
        {
            "name": "Gazaria",
            "pcode": "305924",
            "lat": 23.550320805463016,
            "lng": 90.63214620112969,
            "district": "Munshiganj",
            "district_code": "BD3059",
            "division": "Dhaka",
            "division_code": "BD30",
            "name_bn": "গজারিয়া",
            "district_bn": "মুন্সিগঞ্জ"
        },
        {
            "name": "Gendaria",
            "pcode": "302624",
            "lat": 23.708437395777835,
            "lng": 90.4220163204445,
            "district": "Dhaka",
            "district_code": "BD3026",
            "division": "Dhaka",
            "division_code": "BD30",
            "name_bn": "গেণ্ডারিয়া",
            "district_bn": "ঢাকা"
        },
        {
            "name": "Ghatail",
            "pcode": "309328",
            "lat": 24.473928130237816,
            "lng": 90.05802677140565,
            "district": "Tangail",
            "district_code": "BD3093",
            "division": "Dhaka",
            "division_code": "BD30",
            "name_bn": "ঘাটাইল",
            "district_bn": "টাঙ্গাইল"
        },
        {
            "name": "Ghior",
            "pcode": "305622",
            "lat": 23.863795389037087,
            "lng": 89.90726654402475,
            "district": "Manikganj",
            "district_code": "BD3056",
            "division": "Dhaka",
            "division_code": "BD30",
            "name_bn": "ঘিওর",
            "district_bn": "মানিকগঞ্জ"
        },
        {
            "name": "Ghoraghat",
            "pcode": "552743",
            "lat": 25.284725188631,
            "lng": 89.22009944646435,
            "district": "Dinajpur",
            "district_code": "BD5527",
            "division": "Rangpur",
            "division_code": "BD55",
            "name_bn": "ঘোড়াঘাট",
            "district_bn": "দিনাজপুর"
        },
        {
            "name": "Goalandaghat",
            "pcode": "308229",
            "lat": 23.7493836163208,
            "lng": 89.76691604716987,
            "district": "Rajbari",
            "district_code": "BD3082",
            "division": "Dhaka",
            "division_code": "BD30",
            "name_bn": "গোয়ালন্দ ঘাট",
            "district_bn": "রাজবাড়ী"
        },
        {
            "name": "Gobindaganj",
            "pcode": "553230",
            "lat": 25.153093657905934,
            "lng": 89.38456482695888,
            "district": "Gaibandha",
            "district_code": "BD5532",
            "division": "Rangpur",
            "division_code": "BD55",
            "name_bn": "গোবিন্দগঞ্জ",
            "district_bn": "গাইবান্ধা"
        },
        {
            "name": "Godagari",
            "pcode": "508134",
            "lat": 24.492484123312547,
            "lng": 88.44228049717863,
            "district": "Rajshahi",
            "district_code": "BD5081",
            "division": "Rajshahi",
            "division_code": "BD50",
            "name_bn": "গোদাগাড়ী",
            "district_bn": "রাজশাহী"
        },
        {
            "name": "Gomastapur",
            "pcode": "507037",
            "lat": 24.86499922121991,
            "lng": 88.36095860534758,
            "district": "Nawabganj",
            "district_code": "BD5070",
            "division": "Rajshahi",
            "division_code": "BD50",
            "name_bn": "গোমস্তাপুর",
            "district_bn": "নবাবগঞ্জ"
        },
        {
            "name": "Gopalpur",
            "pcode": "309338",
            "lat": 24.574998252826582,
            "lng": 89.90520905112251,
            "district": "Tangail",
            "district_code": "BD3093",
            "division": "Dhaka",
            "division_code": "BD30",
            "name_bn": "গোপালপুর",
            "district_bn": "টাঙ্গাইল"
        },
        {
            "name": "Gosairhat",
            "pcode": "308636",
            "lat": 23.086302768526934,
            "lng": 90.46350624403233,
            "district": "Shariatpur",
            "district_code": "BD3086",
            "division": "Dhaka",
            "division_code": "BD30",
            "name_bn": "গোসাইরহাট",
            "district_bn": "শরীয়তপুর"
        },
        {
            "name": "Gulshan",
            "pcode": "302626",
            "lat": 23.78508047128576,
            "lng": 90.41273712950006,
            "district": "Dhaka",
            "district_code": "BD3026",
            "division": "Dhaka",
            "division_code": "BD30",
            "name_bn": "গুলশান",
            "district_bn": "ঢাকা"
        },
        {
            "name": "Gurudaspur",
            "pcode": "506941",
            "lat": 24.372985509206238,
            "lng": 89.19791463576294,
            "district": "Natore",
            "district_code": "BD5069",
            "division": "Rajshahi",
            "division_code": "BD50",
            "name_bn": "গুরুদাসপুর",
            "district_bn": "নাটোর"
        },
        {
            "name": "Hakimpur",
            "pcode": "552747",
            "lat": 25.293008872431084,
            "lng": 89.06647636648282,
            "district": "Dinajpur",
            "district_code": "BD5527",
            "division": "Rangpur",
            "division_code": "BD55",
            "name_bn": "হাকিমপুর",
            "district_bn": "দিনাজপুর"
        },
        {
            "name": "Haripur",
            "pcode": "559451",
            "lat": 25.8808197380108,
            "lng": 88.15605907146242,
            "district": "Thakurgaon",
            "district_code": "BD5594",
            "division": "Rangpur",
            "division_code": "BD55",
            "name_bn": "হরিপুর",
            "district_bn": "ঠাকুরগাঁও"
        },
        {
            "name": "Harirampur",
            "pcode": "305628",
            "lat": 23.73660264411434,
            "lng": 89.95699376384292,
            "district": "Manikganj",
            "district_code": "BD3056",
            "division": "Dhaka",
            "division_code": "BD30",
            "name_bn": "হরিরামপুর",
            "district_bn": "মানিকগঞ্জ"
        },
        {
            "name": "Hatibandha",
            "pcode": "555233",
            "lat": 26.13102054067429,
            "lng": 89.14078758247733,
            "district": "Lalmonirhat",
            "district_code": "BD5552",
            "division": "Rangpur",
            "division_code": "BD55",
            "name_bn": "হাতিবান্ধা",
            "district_bn": "লালমনিরহাট"
        },
        {
            "name": "Hazaribagh",
            "pcode": "302628",
            "lat": 23.74173691173338,
            "lng": 90.35796413873341,
            "district": "Dhaka",
            "district_code": "BD3026",
            "division": "Dhaka",
            "division_code": "BD30",
            "name_bn": "হাজারীবাগ",
            "district_bn": "ঢাকা"
        },
        {
            "name": "Ishwardi",
            "pcode": "507639",
            "lat": 24.09047606462926,
            "lng": 89.1014776171686,
            "district": "Pabna",
            "district_code": "BD5076",
            "division": "Rajshahi",
            "division_code": "BD50",
            "name_bn": "ঈশ্বরদী",
            "district_bn": "পাবনা"
        },
        {
            "name": "Islampur",
            "pcode": "453929",
            "lat": 25.08059515988988,
            "lng": 89.78277141633058,
            "district": "Jamalpur",
            "district_code": "BD4539",
            "division": "Mymensingh",
            "division_code": "BD45",
            "name_bn": "ইসলামপুর",
            "district_bn": "জামালপুর"
        },
        {
            "name": "Jaldhaka",
            "pcode": "557336",
            "lat": 26.03159326134005,
            "lng": 88.98978820857006,
            "district": "Nilphamari",
            "district_code": "BD5573",
            "division": "Rangpur",
            "division_code": "BD55",
            "name_bn": "জলঢাকা",
            "district_bn": "নীলফামারী"
        },
        {
            "name": "Jamalpur Sadar",
            "pcode": "453936",
            "lat": 24.84427863479417,
            "lng": 90.00720372987506,
            "district": "Jamalpur",
            "district_code": "BD4539",
            "division": "Mymensingh",
            "division_code": "BD45",
            "name_bn": "জামালপুর সদর",
            "district_bn": "জামালপুর"
        },
        {
            "name": "Jatrabari",
            "pcode": "302629",
            "lat": 23.712955120944503,
            "lng": 90.4520135319445,
            "district": "Dhaka",
            "district_code": "BD3026",
            "division": "Dhaka",
            "division_code": "BD30",
            "name_bn": "যাত্রাবাড়ী",
            "district_bn": "ঢাকা"
        },
        {
            "name": "Joypurhat Sadar",
            "pcode": "503847",
            "lat": 25.11837498861266,
            "lng": 89.02198752651358,
            "district": "Joypurhat",
            "district_code": "BD5038",
            "division": "Rajshahi",
            "division_code": "BD50",
            "name_bn": "জয়পুরহাট সদর",
            "district_bn": "জয়পুরহাট"
        },
        {
            "name": "Kadamtali",
            "pcode": "302632",
            "lat": 23.690029839307744,
            "lng": 90.4480140461539,
            "district": "Dhaka",
            "district_code": "BD3026",
            "division": "Dhaka",
            "division_code": "BD30",
            "name_bn": "কদমতলী",
            "district_bn": "ঢাকা"
        },
        {
            "name": "Kafrul",
            "pcode": "302630",
            "lat": 23.793078544714334,
            "lng": 90.38499835776197,
            "district": "Dhaka",
            "district_code": "BD3026",
            "division": "Dhaka",
            "division_code": "BD30",
            "name_bn": "কাফরুল",
            "district_bn": "ঢাকা"
        },
        {
            "name": "Kahaloo",
            "pcode": "501054",
            "lat": 24.820233696505102,
            "lng": 89.24942325461622,
            "district": "Bogra",
            "district_code": "BD5010",
            "division": "Rajshahi",
            "division_code": "BD50",
            "name_bn": "কাহালু",
            "district_bn": "বগুড়া"
        },
        {
            "name": "Kaharole",
            "pcode": "552756",
            "lat": 25.805502247860268,
            "lng": 88.6041969421721,
            "district": "Dinajpur",
            "district_code": "BD5527",
            "division": "Rangpur",
            "division_code": "BD55",
            "name_bn": "কাহারোল",
            "district_bn": "দিনাজপুর"
        },
        {
            "name": "Kalabagan",
            "pcode": "302633",
            "lat": 23.7482955498572,
            "lng": 90.3862450391429,
            "district": "Dhaka",
            "district_code": "BD3026",
            "division": "Dhaka",
            "division_code": "BD30",
            "name_bn": "কলাবাগান",
            "district_bn": "ঢাকা"
        },
        {
            "name": "Kalai",
            "pcode": "503858",
            "lat": 25.073255453175726,
            "lng": 89.19082255021627,
            "district": "Joypurhat",
            "district_code": "BD5038",
            "division": "Rajshahi",
            "division_code": "BD50",
            "name_bn": "কালাই",
            "district_bn": "জয়পুরহাট"
        },
        {
            "name": "Kaliganj",
            "pcode": "555239",
            "lat": 25.983215574252796,
            "lng": 89.25330375742863,
            "district": "Lalmonirhat",
            "district_code": "BD5552",
            "division": "Rangpur",
            "division_code": "BD55",
            "name_bn": "কালীগঞ্জ",
            "district_bn": "লালমনিরহাট"
        },
        {
            "name": "Kalihati",
            "pcode": "309347",
            "lat": 24.36665415985719,
            "lng": 89.94560778599292,
            "district": "Tangail",
            "district_code": "BD3093",
            "division": "Dhaka",
            "division_code": "BD30",
            "name_bn": "কালিহাতী",
            "district_bn": "টাঙ্গাইল"
        },
        {
            "name": "Kalkini",
            "pcode": "305440",
            "lat": 23.079860510375045,
            "lng": 90.23393970614849,
            "district": "Madaripur",
            "district_code": "BD3054",
            "division": "Dhaka",
            "division_code": "BD30",
            "name_bn": "কালকিনি",
            "district_bn": "মাদারীপুর"
        },
        {
            "name": "Kalukhali",
            "pcode": "308247",
            "lat": 23.738315053959237,
            "lng": 89.47173366325516,
            "district": "Rajbari",
            "district_code": "BD3082",
            "division": "Dhaka",
            "division_code": "BD30",
            "name_bn": "কালুখালী",
            "district_bn": "রাজবাড়ী"
        },
        {
            "name": "Kamarkhanda",
            "pcode": "508844",
            "lat": 24.386393091631632,
            "lng": 89.63618738935531,
            "district": "Sirajganj",
            "district_code": "BD5088",
            "division": "Rajshahi",
            "division_code": "BD50",
            "name_bn": "কামারখন্দ",
            "district_bn": "সিরাজগঞ্জ"
        },
        {
            "name": "Kamrangir Char",
            "pcode": "302634",
            "lat": 23.71193019350006,
            "lng": 90.37568957287505,
            "district": "Dhaka",
            "district_code": "BD3026",
            "division": "Dhaka",
            "division_code": "BD30",
            "name_bn": "কামরাঙ্গীর চর",
            "district_bn": "ঢাকা"
        },
        {
            "name": "Kaunia",
            "pcode": "558542",
            "lat": 25.75819249201255,
            "lng": 89.39597570406256,
            "district": "Rangpur",
            "district_code": "BD5585",
            "division": "Rangpur",
            "division_code": "BD55",
            "name_bn": "কাউনিয়া",
            "district_bn": "রংপুর"
        },
        {
            "name": "Kazipur",
            "pcode": "508850",
            "lat": 24.661362512807745,
            "lng": 89.67238154057699,
            "district": "Sirajganj",
            "district_code": "BD5088",
            "division": "Rajshahi",
            "division_code": "BD50",
            "name_bn": "কাজীপুর",
            "district_bn": "সিরাজগঞ্জ"
        },
        {
            "name": "Keraniganj",
            "pcode": "302638",
            "lat": 23.70569863841101,
            "lng": 90.33262442015074,
            "district": "Dhaka",
            "district_code": "BD3026",
            "division": "Dhaka",
            "division_code": "BD30",
            "name_bn": "কেরাণীগঞ্জ",
            "district_bn": "ঢাকা"
        },
        {
            "name": "Khansama",
            "pcode": "552760",
            "lat": 25.89417426360246,
            "lng": 88.75677099639765,
            "district": "Dinajpur",
            "district_code": "BD5527",
            "division": "Rangpur",
            "division_code": "BD55",
            "name_bn": "খানসামা",
            "district_bn": "দিনাজপুর"
        },
        {
            "name": "Khetlal",
            "pcode": "503861",
            "lat": 25.030239474512243,
            "lng": 89.12476927264639,
            "district": "Joypurhat",
            "district_code": "BD5038",
            "division": "Rajshahi",
            "division_code": "BD50",
            "name_bn": "ক্ষেতলাল",
            "district_bn": "জয়পুরহাট"
        },
        {
            "name": "Khilgaon",
            "pcode": "302636",
            "lat": 23.758768576592644,
            "lng": 90.4511079327408,
            "district": "Dhaka",
            "district_code": "BD3026",
            "division": "Dhaka",
            "division_code": "BD30",
            "name_bn": "খিলগাঁও",
            "district_bn": "ঢাকা"
        },
        {
            "name": "Khilkhet",
            "pcode": "302637",
            "lat": 23.834510687083384,
            "lng": 90.45041589012506,
            "district": "Dhaka",
            "district_code": "BD3026",
            "division": "Dhaka",
            "division_code": "BD30",
            "name_bn": "খিলক্ষেত",
            "district_bn": "ঢাকা"
        },
        {
            "name": "Kishoreganj",
            "pcode": "557345",
            "lat": 25.896498352589795,
            "lng": 89.0349065074616,
            "district": "Nilphamari",
            "district_code": "BD5573",
            "division": "Rangpur",
            "division_code": "BD55",
            "name_bn": "কিশোরগঞ্জ",
            "district_bn": "নীলফামারী"
        },
        {
            "name": "Kotwali",
            "pcode": "302640",
            "lat": 23.71092276960004,
            "lng": 90.40876308420006,
            "district": "Dhaka",
            "district_code": "BD3026",
            "division": "Dhaka",
            "division_code": "BD30",
            "name_bn": "কোতয়ালী",
            "district_bn": "ঢাকা"
        },
        {
            "name": "Kurigram Sadar",
            "pcode": "554952",
            "lat": 25.834438592879362,
            "lng": 89.68520426921557,
            "district": "Kurigram",
            "district_code": "BD5549",
            "division": "Rangpur",
            "division_code": "BD55",
            "name_bn": "কুড়িগ্রাম সদর",
            "district_bn": "কুড়িগ্রাম"
        },
        {
            "name": "Dighalia",
            "pcode": "404740",
            "lat": 22.924310172595288,
            "lng": 89.5636491575953,
            "district": "Khulna",
            "district_code": "BD4047",
            "division": "Khulna",
            "division_code": "BD40",
            "name_bn": "দিঘলিয়া",
            "district_bn": "খুলনা"
        },
        {
            "name": "Dighinala",
            "pcode": "204643",
            "lat": 23.465362416160048,
            "lng": 92.03170874251205,
            "district": "Khagrachhari",
            "district_code": "BD2046",
            "division": "Chittagong",
            "division_code": "BD20",
            "name_bn": "দিঘিনালা",
            "district_bn": "খাগড়াছড়ি"
        },
        {
            "name": "Double Mooring",
            "pcode": "201528",
            "lat": 22.33080891117652,
            "lng": 91.80808626617652,
            "district": "Chittagong",
            "district_code": "BD2015",
            "division": "Chittagong",
            "division_code": "BD20",
            "name_bn": "ডবল মুরিং",
            "district_bn": "চট্টগ্রাম"
        },
        {
            "name": "Dowarabazar",
            "pcode": "609033",
            "lat": 25.08422691714881,
            "lng": 91.58312430195048,
            "district": "Sunamganj",
            "district_code": "BD6090",
            "division": "Sylhet",
            "division_code": "BD60",
            "name_bn": "দোয়ারাবাজার",
            "district_bn": "সুনামগঞ্জ"
        },
        {
            "name": "Dumki",
            "pcode": "107855",
            "lat": 22.443949888737755,
            "lng": 90.36843641180334,
            "district": "Patuakhali",
            "district_code": "BD1078",
            "division": "Barisal",
            "division_code": "BD10",
            "name_bn": "দুমকি",
            "district_bn": "পটুয়াখালী"
        },
        {
            "name": "Dumuria",
            "pcode": "404730",
            "lat": 22.81521836952946,
            "lng": 89.38415982246329,
            "district": "Khulna",
            "district_code": "BD4047",
            "division": "Khulna",
            "division_code": "BD40",
            "name_bn": "ডুমুরিয়া",
            "district_bn": "খুলনা"
        },
        {
            "name": "Durgapur",
            "pcode": "457218",
            "lat": 25.089587230591356,
            "lng": 90.6883176678957,
            "district": "Netrakona",
            "district_code": "BD4572",
            "division": "Mymensingh",
            "division_code": "BD45",
            "name_bn": "দুর্গাপুর",
            "district_bn": "নেত্রকোনা"
        },
        {
            "name": "Fakirhat",
            "pcode": "400134",
            "lat": 22.746557982680052,
            "lng": 89.67304352331006,
            "district": "Bagerhat",
            "district_code": "BD4001",
            "division": "Khulna",
            "division_code": "BD40",
            "name_bn": "ফকিরহাট",
            "district_bn": "বাগেরহাট"
        },
        {
            "name": "Faridganj",
            "pcode": "201345",
            "lat": 23.15262170220005,
            "lng": 90.76647757928895,
            "district": "Chandpur",
            "district_code": "BD2013",
            "division": "Chittagong",
            "division_code": "BD20",
            "name_bn": "ফরিদগঞ্জ",
            "district_bn": "চাঁদপুর"
        },
        {
            "name": "Fatikchhari",
            "pcode": "201533",
            "lat": 22.769038470316143,
            "lng": 91.76229579093685,
            "district": "Chittagong",
            "district_code": "BD2015",
            "division": "Chittagong",
            "division_code": "BD20",
            "name_bn": "ফটিকছড়ি",
            "district_bn": "চট্টগ্রাম"
        },
        {
            "name": "Fenchuganj",
            "pcode": "609135",
            "lat": 24.699597783603224,
            "lng": 91.95557609863498,
            "district": "Sylhet",
            "district_code": "BD6091",
            "division": "Sylhet",
            "division_code": "BD60",
            "name_bn": "ফেঞ্চুগঞ্জ",
            "district_bn": "সিলেট"
        },
        {
            "name": "Feni Sadar",
            "pcode": "203029",
            "lat": 22.98520416097964,
            "lng": 91.40711357673474,
            "district": "Feni",
            "district_code": "BD2030",
            "division": "Chittagong",
            "division_code": "BD20",
            "name_bn": "ফেনী সদর",
            "district_bn": "ফেনী"
        },
        {
            "name": "Fulbaria",
            "pcode": "456120",
            "lat": 24.581259017174297,
            "lng": 90.25834976456824,
            "district": "Mymensingh",
            "district_code": "BD4561",
            "division": "Mymensingh",
            "division_code": "BD45",
            "name_bn": "ফুলবাড়ীয়া",
            "district_bn": "ময়মনসিংহ"
        },
        {
            "name": "Fulgazi",
            "pcode": "203041",
            "lat": 23.11922373635719,
            "lng": 91.45288127731435,
            "district": "Feni",
            "district_code": "BD2030",
            "division": "Chittagong",
            "division_code": "BD20",
            "name_bn": "ফুলগাজী",
            "district_bn": "ফেনী"
        },
        {
            "name": "Gaffargaon",
            "pcode": "456122",
            "lat": 24.402132983651835,
            "lng": 90.54115344158934,
            "district": "Mymensingh",
            "district_code": "BD4561",
            "division": "Mymensingh",
            "division_code": "BD45",
            "name_bn": "গফরগাঁও",
            "district_bn": "ময়মনসিংহ"
        },
        {
            "name": "Galachipa",
            "pcode": "107857",
            "lat": 22.025059786024936,
            "lng": 90.45126206328513,
            "district": "Patuakhali",
            "district_code": "BD1078",
            "division": "Barisal",
            "division_code": "BD10",
            "name_bn": "গলাচিপা",
            "district_bn": "পটুয়াখালী"
        },
        {
            "name": "Gangni",
            "pcode": "405747",
            "lat": 23.865034103526366,
            "lng": 88.76578990442111,
            "district": "Meherpur",
            "district_code": "BD4057",
            "division": "Khulna",
            "division_code": "BD40",
            "name_bn": "গাংনী",
            "district_bn": "মেহেরপুর"
        },
        {
            "name": "Gauripur",
            "pcode": "456123",
            "lat": 24.762250568636414,
            "lng": 90.57797207009096,
            "district": "Mymensingh",
            "district_code": "BD4561",
            "division": "Mymensingh",
            "division_code": "BD45",
            "name_bn": "গৌরীপুর",
            "district_bn": "ময়মনসিংহ"
        },
        {
            "name": "Gaurnadi",
            "pcode": "100632",
            "lat": 22.98605205787373,
            "lng": 90.23093789340005,
            "district": "Barisal",
            "district_code": "BD1006",
            "division": "Barisal",
            "division_code": "BD10",
            "name_bn": "গৌরনদী",
            "district_bn": "বরিশাল"
        },
        {
            "name": "Gazipur Sadar",
            "pcode": "303330",
            "lat": 24.018631880214812,
            "lng": 90.40110536146986,
            "district": "Gazipur",
            "district_code": "BD3033",
            "division": "Dhaka",
            "division_code": "BD30",
            "name_bn": "গাজীপুর সদর",
            "district_bn": "গাজীপুর"
        },
        {
            "name": "Golabganj",
            "pcode": "609138",
            "lat": 24.815020800500054,
            "lng": 92.02211892602591,
            "district": "Sylhet",
            "district_code": "BD6091",
            "division": "Sylhet",
            "division_code": "BD60",
            "name_bn": "গোলাপগঞ্জ",
            "district_bn": "সিলেট"
        },
        {
            "name": "Gopalganj Sadar",
            "pcode": "303532",
            "lat": 23.06780924580005,
            "lng": 89.84815786179237,
            "district": "Gopalganj",
            "district_code": "BD3035",
            "division": "Dhaka",
            "division_code": "BD30",
            "name_bn": "গোপালগঞ্জ সদর",
            "district_bn": "গোপালগঞ্জ"
        },
        {
            "name": "Gowainghat",
            "pcode": "609141",
            "lat": 25.075465585514973,
            "lng": 91.9615104464926,
            "district": "Sylhet",
            "district_code": "BD6091",
            "division": "Sylhet",
            "division_code": "BD60",
            "name_bn": "গোয়াইনঘাট",
            "district_bn": "সিলেট"
        },
        {
            "name": "Habiganj Sadar",
            "pcode": "603644",
            "lat": 24.358185426990875,
            "lng": 91.41543128688997,
            "district": "Habiganj",
            "district_code": "BD6036",
            "division": "Sylhet",
            "division_code": "BD60",
            "name_bn": "হবিগঞ্জ সদর",
            "district_bn": "হবিগঞ্জ"
        },
        {
            "name": "Haim Char",
            "pcode": "201347",
            "lat": 23.069315390136047,
            "lng": 90.61031615131206,
            "district": "Chandpur",
            "district_code": "BD2013",
            "division": "Chittagong",
            "division_code": "BD20",
            "name_bn": "হাইমচর",
            "district_bn": "চাঁদপুর"
        },
        {
            "name": "Hajiganj",
            "pcode": "201349",
            "lat": 23.256047310076976,
            "lng": 90.83990972161544,
            "district": "Chandpur",
            "district_code": "BD2013",
            "division": "Chittagong",
            "division_code": "BD20",
            "name_bn": "হাজীগঞ্জ",
            "district_bn": "চাঁদপুর"
        },
        {
            "name": "Halishahar",
            "pcode": "201535",
            "lat": 22.340747704294166,
            "lng": 91.78103502000006,
            "district": "Chittagong",
            "district_code": "BD2015",
            "division": "Chittagong",
            "division_code": "BD20",
            "name_bn": "হালিশহর",
            "district_bn": "চট্টগ্রাম"
        },
        {
            "name": "Haluaghat",
            "pcode": "456124",
            "lat": 25.078167005421925,
            "lng": 90.35827584778131,
            "district": "Mymensingh",
            "district_code": "BD4561",
            "division": "Mymensingh",
            "division_code": "BD45",
            "name_bn": "হালুয়াঘাট",
            "district_bn": "ময়মনসিংহ"
        },
        {
            "name": "Harinakunda",
            "pcode": "404414",
            "lat": 23.647272769041717,
            "lng": 89.07973379337506,
            "district": "Jhenaidah",
            "district_code": "BD4044",
            "division": "Khulna",
            "division_code": "BD40",
            "name_bn": "হরিণাকুণ্ডু",
            "district_bn": "ঝিনাইদহ"
        },
        {
            "name": "Hathazari",
            "pcode": "201537",
            "lat": 22.513289221153205,
            "lng": 91.81269496137844,
            "district": "Chittagong",
            "district_code": "BD2015",
            "division": "Chittagong",
            "division_code": "BD20",
            "name_bn": "হাটহাজারী",
            "district_bn": "চট্টগ্রাম"
        },
        {
            "name": "Hatiya",
            "pcode": "207536",
            "lat": 22.31502756556762,
            "lng": 91.06492116288423,
            "district": "Noakhali",
            "district_code": "BD2075",
            "division": "Chittagong",
            "division_code": "BD20",
            "name_bn": "হাতিয়া",
            "district_bn": "নোয়াখালী"
        },
        {
            "name": "Hizla",
            "pcode": "100636",
            "lat": 22.94880952950005,
            "lng": 90.5383293478268,
            "district": "Barisal",
            "district_code": "BD1006",
            "division": "Barisal",
            "division_code": "BD10",
            "name_bn": "হিজলা",
            "district_bn": "বরিশাল"
        },
        {
            "name": "Homna",
            "pcode": "201954",
            "lat": 23.677835255739776,
            "lng": 90.8156962116302,
            "district": "Comilla",
            "district_code": "BD2019",
            "division": "Chittagong",
            "division_code": "BD20",
            "name_bn": "হোমনা",
            "district_bn": "কুমিল্লা"
        },
        {
            "name": "Hossainpur",
            "pcode": "304827",
            "lat": 24.455752465061593,
            "lng": 90.66101273772313,
            "district": "Kishoreganj",
            "district_code": "BD3048",
            "division": "Dhaka",
            "division_code": "BD30",
            "name_bn": "হোসেনপুর",
            "district_bn": "কিশোরগঞ্জ"
        },
        {
            "name": "Ishwarganj",
            "pcode": "456131",
            "lat": 24.64876663337074,
            "lng": 90.60438253078455,
            "district": "Mymensingh",
            "district_code": "BD4561",
            "division": "Mymensingh",
            "division_code": "BD45",
            "name_bn": "ঈশ্বরগঞ্জ",
            "district_bn": "ময়মনসিংহ"
        },
        {
            "name": "Itna",
            "pcode": "304833",
            "lat": 24.556966989952432,
            "lng": 91.07416036807149,
            "district": "Kishoreganj",
            "district_code": "BD3048",
            "division": "Dhaka",
            "division_code": "BD30",
            "name_bn": "ইটনা",
            "district_bn": "কিশোরগঞ্জ"
        },
        {
            "name": "Jagannathpur",
            "pcode": "609047",
            "lat": 24.75143624869019,
            "lng": 91.55839052178175,
            "district": "Sunamganj",
            "district_code": "BD6090",
            "division": "Sylhet",
            "division_code": "BD60",
            "name_bn": "জগন্নাথপুর",
            "district_bn": "সুনামগঞ্জ"
        },
        {
            "name": "Jaintiapur",
            "pcode": "609153",
            "lat": 25.049551773286716,
            "lng": 92.09197110333339,
            "district": "Sylhet",
            "district_code": "BD6091",
            "division": "Sylhet",
            "division_code": "BD60",
            "name_bn": "জৈন্তাপুর",
            "district_bn": "সিলেট"
        },
        {
            "name": "Jamalganj",
            "pcode": "609050",
            "lat": 24.941231572378424,
            "lng": 91.19320807362169,
            "district": "Sunamganj",
            "district_code": "BD6090",
            "division": "Sylhet",
            "division_code": "BD60",
            "name_bn": "জামালগঞ্জ",
            "district_bn": "সুনামগঞ্জ"
        },
        {
            "name": "Jhalokati Sadar",
            "pcode": "104240",
            "lat": 22.677250306422273,
            "lng": 90.18439031280006,
            "district": "Jhalokati",
            "district_code": "BD1042",
            "division": "Barisal",
            "division_code": "BD10",
            "name_bn": "ঝালকাঠি সদর",
            "district_bn": "ঝালকাঠি"
        },
        {
            "name": "Jhenaidah Sadar",
            "pcode": "404419",
            "lat": 23.528396516020052,
            "lng": 89.14034259490673,
            "district": "Jhenaidah",
            "district_code": "BD4044",
            "division": "Khulna",
            "division_code": "BD40",
            "name_bn": "ঝিনাইদহ সদর",
            "district_bn": "ঝিনাইদহ"
        },
        {
            "name": "Jhenaigati",
            "pcode": "458937",
            "lat": 25.16748024248198,
            "lng": 90.0513916831567,
            "district": "Sherpur",
            "district_code": "BD4589",
            "division": "Mymensingh",
            "division_code": "BD45",
            "name_bn": "ঝিনাইগাতী",
            "district_bn": "শেরপুর"
        },
        {
            "name": "Jhikargachha",
            "pcode": "404123",
            "lat": 23.07301169055308,
            "lng": 89.05769675306823,
            "district": "Jessore",
            "district_code": "BD4041",
            "division": "Khulna",
            "division_code": "BD40",
            "name_bn": "ঝিকরগাছা",
            "district_bn": "যশোর"
        },
        {
            "name": "Jiban Nagar",
            "pcode": "401855",
            "lat": 23.438416712546445,
            "lng": 88.8497461078248,
            "district": "Chuadanga",
            "district_code": "BD4018",
            "division": "Khulna",
            "division_code": "BD40",
            "name_bn": "জীবননগর",
            "district_bn": "চুয়াডাঙ্গা"
        },
        {
            "name": "Jurai Chhari",
            "pcode": "208447",
            "lat": 22.63211565949388,
            "lng": 92.43598294490128,
            "district": "Rangamati",
            "district_code": "BD2084",
            "division": "Chittagong",
            "division_code": "BD20",
            "name_bn": "জুরাইছড়ি",
            "district_bn": "রাঙ্গামাটি"
        },
        {
            "name": "Juri",
            "pcode": "605835",
            "lat": 24.541157710036817,
            "lng": 92.12941016251477,
            "district": "Maulvibazar",
            "district_code": "BD6058",
            "division": "Sylhet",
            "division_code": "BD60",
            "name_bn": "জুড়ী",
            "district_bn": "মৌলভীবাজার"
        },
        {
            "name": "Kabirhat",
            "pcode": "207547",
            "lat": 22.820756931862796,
            "lng": 91.19655170094124,
            "district": "Noakhali",
            "district_code": "BD2075",
            "division": "Chittagong",
            "division_code": "BD20",
            "name_bn": "কবিরহাট",
            "district_bn": "নোয়াখালী"
        },
        {
            "name": "Kachua",
            "pcode": "201358",
            "lat": 23.349546337398007,
            "lng": 90.89970766132659,
            "district": "Chandpur",
            "district_code": "BD2013",
            "division": "Chittagong",
            "division_code": "BD20",
            "name_bn": "কচুয়া",
            "district_bn": "চাঁদপুর"
        },
        {
            "name": "Kachua",
            "pcode": "400138",
            "lat": 22.666458853532514,
            "lng": 89.87463979342863,
            "district": "Bagerhat",
            "district_code": "BD4001",
            "division": "Khulna",
            "division_code": "BD40",
            "name_bn": "কচুয়া",
            "district_bn": "বাগেরহাট"
        },
        {
            "name": "Kala Para",
            "pcode": "107866",
            "lat": 21.975229473186655,
            "lng": 90.21638023105749,
            "district": "Patuakhali",
            "district_code": "BD1078",
            "division": "Barisal",
            "division_code": "BD10",
            "name_bn": "কলাপাড়া",
            "district_bn": "পটুয়াখালী"
        },
        {
            "name": "Kalaroa",
            "pcode": "408743",
            "lat": 22.884970646912674,
            "lng": 89.02047361749521,
            "district": "Satkhira",
            "district_code": "BD4087",
            "division": "Khulna",
            "division_code": "BD40",
            "name_bn": "কলারোয়া",
            "district_bn": "সাতক্ষীরা"
        },
        {
            "name": "Kalia",
            "pcode": "406528",
            "lat": 23.02677403156902,
            "lng": 89.64846247684488,
            "district": "Narail",
            "district_code": "BD4065",
            "division": "Khulna",
            "division_code": "BD40",
            "name_bn": "কালিয়া",
            "district_bn": "নড়াইল"
        },
        {
            "name": "Kaliakair",
            "pcode": "303332",
            "lat": 24.098180918964342,
            "lng": 90.25700964955364,
            "district": "Gazipur",
            "district_code": "BD3033",
            "division": "Dhaka",
            "division_code": "BD30",
            "name_bn": "কালিয়াকৈর",
            "district_bn": "গাজীপুর"
        },